{
"type": "FeatureCollection",
"name": "can_us_cities",
"crs": { "type": "name", "properties": { "name": "urn:ogc:def:crs:OGC:1.3:CRS84" } },
"features": [
{ "type": "Feature", "properties": { "city": "Calgary", "country.etc": "AB" }, "geometry": { "type": "Point", "coordinates": [ -114.06, 51.05 ] } },
{ "type": "Feature", "properties": { "city": "Edmonton", "country.etc": "AB" }, "geometry": { "type": "Point", "coordinates": [ -113.54, 53.57 ] } },
{ "type": "Feature", "properties": { "city": "Halifax", "country.etc": "NS" }, "geometry": { "type": "Point", "coordinates": [ -63.61, 44.67 ] } },
{ "type": "Feature", "properties": { "city": "London", "country.etc": "ON" }, "geometry": { "type": "Point", "coordinates": [ -81.24, 42.97 ] } },
{ "type": "Feature", "properties": { "city": "Montreal", "country.etc": "QC" }, "geometry": { "type": "Point", "coordinates": [ -73.57, 45.52 ] } },
{ "type": "Feature", "properties": { "city": "Ottawa", "country.etc": "ON" }, "geometry": { "type": "Point", "coordinates": [ -75.71, 45.42 ] } },
{ "type": "Feature", "properties": { "city": "Quebec", "country.etc": "QC" }, "geometry": { "type": "Point", "coordinates": [ -71.23, 46.82 ] } },
{ "type": "Feature", "properties": { "city": "Toronto", "country.etc": "ON" }, "geometry": { "type": "Point", "coordinates": [ -79.38, 43.65 ] } },
{ "type": "Feature", "properties": { "city": "Vancouver", "country.etc": "BC" }, "geometry": { "type": "Point", "coordinates": [ -123.13, 49.28 ] } },
{ "type": "Feature", "properties": { "city": "Winnipeg", "country.etc": "MB" }, "geometry": { "type": "Point", "coordinates": [ -97.17, 49.88 ] } },
{ "type": "Feature", "properties": { "city": "Albuquerque", "country.etc": "NM" }, "geometry": { "type": "Point", "coordinates": [ -106.62, 35.12 ] } },
{ "type": "Feature", "properties": { "city": "Atlanta", "country.etc": "GA" }, "geometry": { "type": "Point", "coordinates": [ -84.42, 33.76 ] } },
{ "type": "Feature", "properties": { "city": "Austin", "country.etc": "TX" }, "geometry": { "type": "Point", "coordinates": [ -97.75, 30.31 ] } },
{ "type": "Feature", "properties": { "city": "Bakersfield", "country.etc": "CA" }, "geometry": { "type": "Point", "coordinates": [ -119.0, 35.36 ] } },
{ "type": "Feature", "properties": { "city": "Baltimore", "country.etc": "MD" }, "geometry": { "type": "Point", "coordinates": [ -76.61, 39.3 ] } },
{ "type": "Feature", "properties": { "city": "Boston", "country.etc": "MA" }, "geometry": { "type": "Point", "coordinates": [ -71.02, 42.34 ] } },
{ "type": "Feature", "properties": { "city": "Charlotte", "country.etc": "NC" }, "geometry": { "type": "Point", "coordinates": [ -80.83, 35.2 ] } },
{ "type": "Feature", "properties": { "city": "Chicago", "country.etc": "IL" }, "geometry": { "type": "Point", "coordinates": [ -87.68, 41.84 ] } },
{ "type": "Feature", "properties": { "city": "Cincinnati", "country.etc": "OH" }, "geometry": { "type": "Point", "coordinates": [ -84.51, 39.14 ] } },
{ "type": "Feature", "properties": { "city": "Cleveland", "country.etc": "OH" }, "geometry": { "type": "Point", "coordinates": [ -81.68, 41.48 ] } },
{ "type": "Feature", "properties": { "city": "Colorado Springs", "country.etc": "CO" }, "geometry": { "type": "Point", "coordinates": [ -104.76, 38.86 ] } },
{ "type": "Feature", "properties": { "city": "Columbus", "country.etc": "OH" }, "geometry": { "type": "Point", "coordinates": [ -82.99, 39.99 ] } },
{ "type": "Feature", "properties": { "city": "Dallas", "country.etc": "TX" }, "geometry": { "type": "Point", "coordinates": [ -96.77, 32.79 ] } },
{ "type": "Feature", "properties": { "city": "Denver", "country.etc": "CO" }, "geometry": { "type": "Point", "coordinates": [ -104.87, 39.77 ] } },
{ "type": "Feature", "properties": { "city": "Detroit", "country.etc": "MI" }, "geometry": { "type": "Point", "coordinates": [ -83.1, 42.38 ] } },
{ "type": "Feature", "properties": { "city": "El Paso", "country.etc": "TX" }, "geometry": { "type": "Point", "coordinates": [ -106.44, 31.85 ] } },
{ "type": "Feature", "properties": { "city": "Fort Worth", "country.etc": "TX" }, "geometry": { "type": "Point", "coordinates": [ -97.34, 32.75 ] } },
{ "type": "Feature", "properties": { "city": "Fresno", "country.etc": "CA" }, "geometry": { "type": "Point", "coordinates": [ -119.79, 36.78 ] } },
{ "type": "Feature", "properties": { "city": "Honolulu", "country.etc": "HI" }, "geometry": { "type": "Point", "coordinates": [ -157.8, 21.32 ] } },
{ "type": "Feature", "properties": { "city": "Houston", "country.etc": "TX" }, "geometry": { "type": "Point", "coordinates": [ -95.39, 29.77 ] } },
{ "type": "Feature", "properties": { "city": "Indianapolis", "country.etc": "IN" }, "geometry": { "type": "Point", "coordinates": [ -86.15, 39.78 ] } },
{ "type": "Feature", "properties": { "city": "Jacksonville", "country.etc": "FL" }, "geometry": { "type": "Point", "coordinates": [ -81.66, 30.33 ] } },
{ "type": "Feature", "properties": { "city": "Kansas City", "country.etc": "MO" }, "geometry": { "type": "Point", "coordinates": [ -94.55, 39.12 ] } },
{ "type": "Feature", "properties": { "city": "Las Vegas", "country.etc": "NV" }, "geometry": { "type": "Point", "coordinates": [ -115.22, 36.21 ] } },
{ "type": "Feature", "properties": { "city": "Los Angeles", "country.etc": "CA" }, "geometry": { "type": "Point", "coordinates": [ -118.41, 34.11 ] } },
{ "type": "Feature", "properties": { "city": "Louisville", "country.etc": "KY" }, "geometry": { "type": "Point", "coordinates": [ -85.74, 38.22 ] } },
{ "type": "Feature", "properties": { "city": "Memphis", "country.etc": "TN" }, "geometry": { "type": "Point", "coordinates": [ -90.01, 35.11 ] } },
{ "type": "Feature", "properties": { "city": "Miami", "country.etc": "FL" }, "geometry": { "type": "Point", "coordinates": [ -80.21, 25.78 ] } },
{ "type": "Feature", "properties": { "city": "Milwaukee", "country.etc": "WI" }, "geometry": { "type": "Point", "coordinates": [ -87.97, 43.06 ] } },
{ "type": "Feature", "properties": { "city": "Minneapolis", "country.etc": "MN" }, "geometry": { "type": "Point", "coordinates": [ -93.27, 44.96 ] } },
{ "type": "Feature", "properties": { "city": "Nashville", "country.etc": "TN" }, "geometry": { "type": "Point", "coordinates": [ -86.78, 36.17 ] } },
{ "type": "Feature", "properties": { "city": "New Orleans", "country.etc": "LA" }, "geometry": { "type": "Point", "coordinates": [ -89.93, 30.07 ] } },
{ "type": "Feature", "properties": { "city": "New York", "country.etc": "NY" }, "geometry": { "type": "Point", "coordinates": [ -73.94, 40.67 ] } },
{ "type": "Feature", "properties": { "city": "Oakland", "country.etc": "CA" }, "geometry": { "type": "Point", "coordinates": [ -122.22, 37.77 ] } },
{ "type": "Feature", "properties": { "city": "Oklahoma City", "country.etc": "OK" }, "geometry": { "type": "Point", "coordinates": [ -97.51, 35.47 ] } },
{ "type": "Feature", "properties": { "city": "Omaha", "country.etc": "NE" }, "geometry": { "type": "Point", "coordinates": [ -96.01, 41.26 ] } },
{ "type": "Feature", "properties": { "city": "Orlando", "country.etc": "FL" }, "geometry": { "type": "Point", "coordinates": [ -81.37, 28.5 ] } },
{ "type": "Feature", "properties": { "city": "Philadelphia", "country.etc": "PA" }, "geometry": { "type": "Point", "coordinates": [ -75.13, 40.01 ] } },
{ "type": "Feature", "properties": { "city": "Phoenix", "country.etc": "AZ" }, "geometry": { "type": "Point", "coordinates": [ -112.07, 33.54 ] } },
{ "type": "Feature", "properties": { "city": "Pittsburgh", "country.etc": "PA" }, "geometry": { "type": "Point", "coordinates": [ -79.98, 40.44 ] } },
{ "type": "Feature", "properties": { "city": "Portland", "country.etc": "OR" }, "geometry": { "type": "Point", "coordinates": [ -122.66, 45.54 ] } },
{ "type": "Feature", "properties": { "city": "Raleigh", "country.etc": "NC" }, "geometry": { "type": "Point", "coordinates": [ -78.66, 35.82 ] } },
{ "type": "Feature", "properties": { "city": "Sacramento", "country.etc": "CA" }, "geometry": { "type": "Point", "coordinates": [ -121.47, 38.57 ] } },
{ "type": "Feature", "properties": { "city": "St Louis", "country.etc": "MO" }, "geometry": { "type": "Point", "coordinates": [ -90.24, 38.64 ] } },
{ "type": "Feature", "properties": { "city": "Salt Lake City", "country.etc": "UT" }, "geometry": { "type": "Point", "coordinates": [ -111.93, 40.78 ] } },
{ "type": "Feature", "properties": { "city": "San Antonio", "country.etc": "TX" }, "geometry": { "type": "Point", "coordinates": [ -98.51, 29.46 ] } },
{ "type": "Feature", "properties": { "city": "San Diego", "country.etc": "CA" }, "geometry": { "type": "Point", "coordinates": [ -117.14, 32.81 ] } },
{ "type": "Feature", "properties": { "city": "San Francisco", "country.etc": "CA" }, "geometry": { "type": "Point", "coordinates": [ -122.45, 37.77 ] } },
{ "type": "Feature", "properties": { "city": "San Jose", "country.etc": "CA" }, "geometry": { "type": "Point", "coordinates": [ -121.85, 37.3 ] } },
{ "type": "Feature", "properties": { "city": "Seattle", "country.etc": "WA" }, "geometry": { "type": "Point", "coordinates": [ -122.35, 47.62 ] } },
{ "type": "Feature", "properties": { "city": "Tampa", "country.etc": "FL" }, "geometry": { "type": "Point", "coordinates": [ -82.48, 27.96 ] } },
{ "type": "Feature", "properties": { "city": "Tucson", "country.etc": "AZ" }, "geometry": { "type": "Point", "coordinates": [ -110.89, 32.2 ] } },
{ "type": "Feature", "properties": { "city": "Tulsa", "country.etc": "OK" }, "geometry": { "type": "Point", "coordinates": [ -95.92, 36.13 ] } },
{ "type": "Feature", "properties": { "city": "Washington DC", "country.etc": "DC" }, "geometry": { "type": "Point", "coordinates": [ -77.02, 38.91 ] } },
{ "type": "Feature", "properties": { "city": "Wichita", "country.etc": "KS" }, "geometry": { "type": "Point", "coordinates": [ -97.34, 37.69 ] } }
]
}
